[{"code":"AAQ","lat":"44.9","lon":"37.3167","name":"Olkhovka Airport","city":"Novorossiysk","state":"Krasnodarskiy Kray","country":"Russia","woeid":"12516605"},{"code":"ABJ","lat":"5.2556","lon":"-3.9292","name":"Abidjan Port Bouet Airport","city":"Abidjan","state":"Abidjan","country":"Ivory Coast","woeid":"12513870"},{"code":"ABQ","lat":"35.0494","lon":"-106.625","name":"Albuquerque International Airport","city":"Albuquerque","state":"New Mexico","country":"United States","woeid":"12518564"},{"code":"ABZ","lat":"57.2004","lon":"-2.20373","name":"Aberdeen Dyce International Airport","city":"Aberdeen","state":"Scotland","country":"United Kingdom","woeid":"22450858"},{"code":"ACC","lat":"5.5964","lon":"-0.17","name":"Kotoka International Airport","city":"Accra","state":"Greater Accra","country":"Ghana","woeid":"12513022"},{"code":"ACE","lat":"28.9521","lon":"-13.6085","name":"Arrecife Airport","city":"San Bartolomé","state":"Canary Islands","country":"Spain","woeid":"12523048"},{"code":"ADB","lat":"38.32","lon":"27.1603","name":"Gaziemir Airport","city":"Azmir","state":"İzmir","country":"Turkey","woeid":"12517893"},{"code":"ADD","lat":"8.9783","lon":"38.8011","name":"Bole International Airport","city":"Addis Ababa","state":"Debub Shewa","country":"Ethiopia","woeid":"12512758"},{"code":"ADL","lat":"-34.9464","lon":"138.529","name":"Adelaide International Airport","city":"Adelaide","state":"South Australia","country":"Australia","woeid":"1107231"},{"code":"AEP","lat":"-34.5617","lon":"-58.4113","name":"Aeroparque Jorge Newbery","city":"Buenos Aires","state":"Ciudad de Buenos Aires","country":"Argentina","woeid":"23388199"},{"code":"AER","lat":"43.447","lon":"39.9552","name":"Adler Airport","city":"Sochi","state":"Krasnodarskiy Kray","country":"Russia","woeid":"12515677"},{"code":"AGP","lat":"36.6749","lon":"-4.49298","name":"Malaga Airport","city":"Malaga","state":"Andalucia","country":"Spain","woeid":"23232917"},{"code":"AHO","lat":"40.6319","lon":"8.29279","name":"Alghero Airport","city":"Alghero","state":"Sardinia","country":"Italy","woeid":"12513798"},{"code":"AKL","lat":"-37.0085","lon":"174.782","name":"Auckland International Airport","city":"Manukau City","state":"Auckland","country":"New Zealand","woeid":"12515151"},{"code":"ALA","lat":"43.3608","lon":"77.0319","name":"Alma Ata Airport","city":"Almaty","state":"Almaty","country":"Kazakhstan","woeid":"12514259"},{"code":"ALB","lat":"42.7426","lon":"-73.809","name":"Albany International Airport","city":"Latham","state":"New York","country":"United States","woeid":"12518554"},{"code":"ALC","lat":"38.2844","lon":"-0.5576","name":"Alicante Airport","city":"Elx","state":"Valencia","country":"Spain","woeid":"22412043"},{"code":"ALG","lat":"36.6993","lon":"3.21935","name":"Houari Boumediene Airport","city":"Algiers","state":"Alger","country":"Algeria","woeid":"12510331"},{"code":"AMM","lat":"31.7231","lon":"35.9936","name":"Queen Alia International Airport","city":"Amman","state":"'Amman","country":"Jordan","woeid":"12514059"},{"code":"AMS","lat":"52.3122","lon":"4.77511","name":"Schiphol Airport","city":"Schiphol Zuid","state":"North Holland","country":"Netherlands","woeid":"22386730"},{"code":"ANC","lat":"61.1767","lon":"-149.961","name":"Anchorage International Airport","city":"Anchorage","state":"Alaska","country":"United States","woeid":"12518613"},{"code":"ANU","lat":"17.1375","lon":"-61.79","name":"V C Bird International Airport","city":"Carlisle","state":"Saint George","country":"Antigua and Barbuda","woeid":"12510300"},{"code":"ARN","lat":"59.6521","lon":"17.9317","name":"Arlanda Airport","city":"Märst","state":"Stockholm","country":"Sweden","woeid":"12517610"},{"code":"ATH","lat":"37.8937","lon":"23.7235","name":"Eleftherios Venizelos International Airport","city":"Athens","state":"Attiki","country":"Greece","woeid":"12513286"},{"code":"ATL","lat":"33.6558","lon":"-84.4333","name":"Hartsfield-Jackson Atlanta International Airport","city":"Atlanta","state":"Georgia","country":"United States","woeid":"12522118"},{"code":"AUA","lat":"12.5022","lon":"-70.0139","name":"Reina Beatrix International Airport","city":"Aruba","state":"","country":"Aruba","woeid":"12510298"},{"code":"AUH","lat":"24.4331","lon":"54.6489","name":"Abu Dhabi International Airport","city":"Abu Dhabi","state":"Abu Dhabi","country":"United Arab Emirates","woeid":"12517727"},{"code":"AUS","lat":"30.2027","lon":"-97.6653","name":"Austin-Bergstrom International Airport","city":"Austin","state":"Texas","country":"United States","woeid":"23418445"},{"code":"AYT","lat":"36.9022","lon":"30.7917","name":"Antalya Airport","city":"Antalya","state":"Antalya","country":"Turkey","woeid":"12517869"},{"code":"BAH","lat":"26.2736","lon":"50.6234","name":"Bahrain International Airport","city":"Al Muharraq","state":"Al Manamah","country":"Bahrain","woeid":"23388208"},{"code":"BBU","lat":"44.4966","lon":"26.087","name":"Aeroportul National Bucuresti-Baneasa","city":"Bucharest","state":"Bucuresti","country":"Romania","woeid":"23388350"},{"code":"BCN","lat":"41.3006","lon":"2.07976","name":"Barcelona International Airport","city":"El Prat de Llobregat","state":"Catalonia","country":"Spain","woeid":"22411879"},{"code":"BDL","lat":"41.9271","lon":"-72.6816","name":"Bradley International Airport","city":"Windsor Locks","state":"Connecticut","country":"United States","woeid":"12518915"},{"code":"BEG","lat":"44.8192","lon":"20.3122","name":"Surcin Airport","city":"Surčin","state":"Beograd","country":"Serbia","woeid":"12517583"},{"code":"BET","lat":"60.7788","lon":"-161.847","name":"Bethel Airport","city":"Bethel","state":"Alaska","country":"United States","woeid":"12518815"},{"code":"BEY","lat":"33.825","lon":"35.4925","name":"Beirut International Airport","city":"Beirut","state":"Jabal Lubnan","country":"Lebanon","woeid":"23388329"},{"code":"BFS","lat":"54.6542","lon":"-6.225","name":"Aldergrove Airport","city":"Crumlin","state":"Northern Ireland","country":"United Kingdom","woeid":"12518031"},{"code":"BGI","lat":"13.0719","lon":"-59.4939","name":"Grantley Adams International Airport","city":"Bridgetown","state":"Christ Church","country":"Barbados","woeid":"12510833"},{"code":"BGO","lat":"60.2907","lon":"5.22065","name":"Bergen Flesland Airport","city":"Blomsterdalen","state":"Hordaland Fylke","country":"Norway","woeid":"12515104"},{"code":"BGY","lat":"45.6664","lon":"9.699","name":"Orio Al Serio Airport","city":"Grassobbio","state":"Lombardy","country":"Italy","woeid":"22309691"},{"code":"BHD","lat":"54.6151","lon":"-5.87096","name":"George Best Belfast City Airport","city":"Belfast","state":"Northern Ireland","country":"United Kingdom","woeid":"23387943"},{"code":"BHM","lat":"33.5604","lon":"-86.7492","name":"Birmingham International Airport","city":"Birmingham","state":"Alabama","country":"United States","woeid":"12518836"},{"code":"BHX","lat":"52.4531","lon":"-1.73847","name":"Birmingham International Airport","city":"Birmingham","state":"England","country":"United Kingdom","woeid":"22454274"},{"code":"BIO","lat":"43.3025","lon":"-2.91112","name":"Bilbao Airport","city":"Loiu","state":"Basque Country","country":"Spain","woeid":"12517541"},{"code":"BKI","lat":"5.9386","lon":"116.049","name":"Kota Kinabalu Airport","city":"Kota Kinabalu","state":"Sabah","country":"Malaysia","woeid":"12514995"},{"code":"BKK","lat":"13.9144","lon":"100.608","name":"Bangkok International Airport","city":"Lak Si","state":"Bangkok","country":"Thailand","woeid":"12517747"},{"code":"BLL","lat":"55.742","lon":"9.15354","name":"Billund Airport","city":"Billund","state":"Syddanmark","country":"Denmark","woeid":"12512589"},{"code":"BLQ","lat":"44.5345","lon":"11.2903","name":"Bologna Airport","city":"Bologna","state":"Emilia Romagna","country":"Italy","woeid":"12513806"},{"code":"BLR","lat":"12.9526","lon":"77.6656","name":"HAL Bangalore International Airport","city":"Bangalore","state":"Karnataka","country":"India","woeid":"12513543"},{"code":"BNA","lat":"36.1342","lon":"-86.6682","name":"Nashville International Airport","city":"Nashville","state":"Tennessee","country":"United States","woeid":"12521083"},{"code":"BNE","lat":"-27.3589","lon":"153.122","name":"Brisbane International Airport","city":"Brisbane","state":"Queensland","country":"Australia","woeid":"23388207"},{"code":"BOD","lat":"44.8291","lon":"-0.70278","name":"Bordeaux Airport","city":"Merignac","state":"Aquitaine","country":"France","woeid":"12512934"},{"code":"BOG","lat":"4.69895","lon":"-74.1435","name":"Eldorado International Airport","city":"Fontibón","state":"Distrito Especial","country":"Colombia","woeid":"12512375"},{"code":"BOI","lat":"43.5709","lon":"-116.222","name":"Boise Air Terminal","city":"Boise","state":"Idaho","country":"United States","woeid":"12518880"},{"code":"BOJ","lat":"42.5667","lon":"27.5","name":"Bourgas Airport","city":"Burgas","state":"Burgas","country":"Bulgaria","woeid":"12523782"},{"code":"BOM","lat":"19.0932","lon":"72.8654","name":"Chhatrapati Shivaji International Airport","city":"Mumbai","state":"Maharashtra","country":"India","woeid":"12513559"},{"code":"BOS","lat":"42.3717","lon":"-71.0281","name":"Gen E L Logan International Airport","city":"Boston","state":"Massachusetts","country":"United States","woeid":"12519874"},{"code":"BRE","lat":"53.0523","lon":"8.78533","name":"Bremen Airport","city":"Bremen","state":"Bremen","country":"Germany","woeid":"22177393"},{"code":"BRI","lat":"41.1376","lon":"16.7674","name":"Palese Macchie Airport","city":"Bari","state":"Puglia","country":"Italy","woeid":"12513843"},{"code":"BRS","lat":"51.3848","lon":"-2.70526","name":"Bristol International Airport","city":"Bristol","state":"England","country":"United Kingdom","woeid":"22456683"},{"code":"BRU","lat":"50.899","lon":"4.4859","name":"Brussels Airport","city":"Bruxelles","state":"Vlaams Brabant","country":"Belgium","woeid":"22103751"},{"code":"BSB","lat":"-15.8622","lon":"-47.9122","name":"Juscelino Kubitschek International Airport","city":"Lago Sul","state":"Distrito Federal","country":"Brazil","woeid":"12511058"},{"code":"BSL","lat":"47.5998","lon":"7.532","name":"Euroairport Basel-Mulhouse-Freiburg","city":"St-Ludwig","state":"Alsace","country":"France","woeid":"12523049"},{"code":"BTS","lat":"48.2063","lon":"17.2055","name":"Bratislava Airport","city":"Bratislava","state":"Bratislavsky","country":"Slovakia","woeid":"12514608"},{"code":"BUD","lat":"47.4453","lon":"19.2195","name":"Liszt Ferenc nemzetközi repülőtér","city":"Budapest","state":"Budapest","country":"Hungary","woeid":"12513389"},{"code":"BUF","lat":"42.9309","lon":"-78.738","name":"Greater Buffalo International Airport","city":"Buffalo","state":"New York","country":"United States","woeid":"12519977"},{"code":"BWI","lat":"39.1841","lon":"-76.6745","name":"Baltimore-Washington International Thurgood Mars","city":"Baltimore","state":"Maryland","country":"United States","woeid":"12522341"},{"code":"CAG","lat":"39.2527","lon":"9.05813","name":"Elmas Airport","city":"Sardara","state":"Sardinia","country":"Italy","woeid":"12513818"},{"code":"CAI","lat":"30.1206","lon":"31.4078","name":"Cairo International Airport","city":"Cairo","state":"Al Qahirah","country":"Egypt","woeid":"12512678"},{"code":"CAN","lat":"23.3925","lon":"113.299","name":"Baiyun Airport","city":"Guangzhou","state":"Guangdong","country":"China","woeid":"12511984"},{"code":"CCS","lat":"10.6053","lon":"-66.9881","name":"Simon Bolivar International Airport","city":"Catia la Mar","state":"Vargas","country":"Venezuela","woeid":"12522849"},{"code":"CCU","lat":"22.6572","lon":"88.4506","name":"Netaji Subhash Chandra Bose International Airpor","city":"Kolkata","state":"West Bengal","country":"India","woeid":"12513561"},{"code":"CDG","lat":"49.0175","lon":"2.5564","name":"Charles de Gaulle International Airport","city":"Le Mesnil-Amelot","state":"Ile-de-France","country":"France","woeid":"22140453"},{"code":"CEB","lat":"10.3596","lon":"123.837","name":"Lahug Airport","city":"Cebu","state":"Central Visayas","country":"Philippines","woeid":"12515625"},{"code":"CFU","lat":"39.6013","lon":"19.9136","name":"Kerkira Airport","city":"Corcyra","state":"Nisia Ionioy","country":"Greece","woeid":"12513298"},{"code":"CGH","lat":"-23.6285","lon":"-46.6589","name":"Congonhas International Airport","city":"Sao Paulo","state":"Sao Paulo","country":"Brazil","woeid":"23388212"},{"code":"CGK","lat":"-6.11964","lon":"106.656","name":"Jakarta International Airport","city":"Tangerang","state":"Banten","country":"Indonesia","woeid":"23388291"},{"code":"CGN","lat":"50.8784","lon":"7.12293","name":"Cologne Bonn Airport","city":"Cologne","state":"North Rhine-Westphalia","country":"Germany","woeid":"23030981"},{"code":"CGO","lat":"34.75","lon":"113.65","name":"Zhengzhou Airport","city":"Zhengzhou","state":"Henan","country":"China","woeid":"12523109"},{"code":"CGQ","lat":"43.9069","lon":"125.207","name":"Dafang Shen Airport","city":"Changchun","state":"Jilin","country":"China","woeid":"12512022"},{"code":"CHC","lat":"-43.4859","lon":"172.534","name":"Christchurch International Airport","city":"Christchurch","state":"Canterbury","country":"New Zealand","woeid":"12515152"},{"code":"CHQ","lat":"35.5319","lon":"24.1489","name":"Souda Airport","city":"Canea","state":"Kriti","country":"Greece","woeid":"12513324"},{"code":"CIA","lat":"41.8004","lon":"12.5908","name":"Ciampino Airport","city":"Rome","state":"Lazio","country":"Italy","woeid":"22307480"},{"code":"CKG","lat":"29.5833","lon":"106.5","name":"Chongqing Jiangbei International","city":"Chongqing","state":"Chongqing","country":"China","woeid":"12523085"},{"code":"CLE","lat":"41.4115","lon":"-81.8339","name":"Hopkins International Airport","city":"Cleveland","state":"Ohio","country":"United States","woeid":"12520226"},{"code":"CLT","lat":"35.2226","lon":"-80.946","name":"Douglas International Airport","city":"Charlotte","state":"North Carolina","country":"United States","woeid":"12519519"},{"code":"CMB","lat":"7.1806","lon":"79.8856","name":"Katunayake International Airport","city":"Gampaha","state":"Western","country":"Sri Lanka","woeid":"12511941"},{"code":"CMH","lat":"39.9974","lon":"-82.8877","name":"Port Columbus International Airport","city":"Columbus","state":"Ohio","country":"United States","woeid":"12521441"},{"code":"CMN","lat":"33.365","lon":"-7.5817","name":"Mohamed V Airport","city":"Casablanca","state":"Casablanca","country":"Morocco","woeid":"12514788"},{"code":"CNS","lat":"-16.8831","lon":"145.753","name":"Cairns International Airport","city":"Cairns","state":"Queensland","country":"Australia","woeid":"12510623"},{"code":"COK","lat":"9.93997","lon":"76.2748","name":"Kochi Airport","city":"Kochi","state":"Kerala","country":"India","woeid":"12513568"},{"code":"CPH","lat":"55.6205","lon":"12.6495","name":"Copenhagen Airport","city":"Kastrup","state":"Hovedstaden","country":"Denmark","woeid":"22851127"},{"code":"CPT","lat":"-33.9647","lon":"18.6022","name":"D F Malan Airport","city":"Cape Town","state":"Western Cape","country":"South Africa","woeid":"12517402"},{"code":"CSX","lat":"28.0711","lon":"112.958","name":"Huanghua Airport","city":"Changsha","state":"Hunan","country":"China","woeid":"12523089"},{"code":"CTA","lat":"37.4696","lon":"15.0672","name":"Catania Fontanarossa Airport","city":"Catania","state":"Sicily","country":"Italy","woeid":"22307044"},{"code":"CTS","lat":"42.7757","lon":"141.691","name":"New Chitose Airport","city":"Chitose-shi","state":"Hokkaido Prefecture","country":"Japan","woeid":"12523091"},{"code":"CTU","lat":"30.5775","lon":"103.941","name":"Chengdushuang Liu Airport","city":"Chengdu","state":"Sichuan","country":"China","woeid":"12512010"},{"code":"CUN","lat":"21.0406","lon":"-86.8744","name":"Cancun Airport","city":"Cancun","state":"Quintana Roo","country":"Mexico","woeid":"23388337"},{"code":"CVG","lat":"39.0571","lon":"-84.6625","name":"Greater Cincinnati International Airport","city":"Hebron","state":"Ohio","country":"United States","woeid":"12519978"},{"code":"CWL","lat":"51.3998","lon":"-3.34475","name":"Cardiff International Airport","city":"Barry","state":"Wales","country":"United Kingdom","woeid":"22452963"},{"code":"DAC","lat":"23.8379","lon":"90.3948","name":"Zia International Airport Dhaka","city":"Dhaka","state":"Dhaka","country":"Bangladesh","woeid":"12510895"},{"code":"DAM","lat":"33.4139","lon":"36.5178","name":"Damascus International Airport","city":"Damascus","state":"Rif Dimashq","country":"Syria","woeid":"12517698"},{"code":"DAR","lat":"-6.8753","lon":"39.2019","name":"Dar Es Salaam Airport","city":"Dar es Salaam","state":"Dar es Salaam","country":"Tanzania","woeid":"12518013"},{"code":"DAY","lat":"39.8968","lon":"-84.2207","name":"James M Cox Dayton International Airport","city":"Dayton","state":"Ohio","country":"United States","woeid":"12520347"},{"code":"DBV","lat":"42.5631","lon":"18.2692","name":"Dubrovnik Airport","city":"Dubrovnik","state":"Dubrovačko-neretvanska","country":"Croatia","woeid":"12513367"},{"code":"DCA","lat":"38.849","lon":"-77.0438","name":"Washington National Airport","city":"Arlington","state":"Virginia","country":"United States","woeid":"12522343"},{"code":"DEL","lat":"28.5603","lon":"77.1027","name":"Indira Gandhi International Airport","city":"New Delhi","state":"Madhya Pradesh","country":"India","woeid":"12513599"},{"code":"DEN","lat":"39.8396","lon":"-104.672","name":"Denver International Airport","city":"Denver","state":"Colorado","country":"United States","woeid":"12523052"},{"code":"DFW","lat":"32.9222","lon":"-97.0409","name":"Fort Worth International Airport","city":"Dallas","state":"Texas","country":"United States","woeid":"12519786"},{"code":"DJE","lat":"33.8764","lon":"10.7792","name":"Zarzis Airport","city":"Hawmat as Suq","state":"Madanin","country":"Tunisia","woeid":"12517864"},{"code":"DKR","lat":"14.7417","lon":"-17.4931","name":"Dakar Yoff Airport","city":"Ngor","state":"Dakar","country":"Senegal","woeid":"12517505"},{"code":"DLA","lat":"4.0133","lon":"9.7097","name":"Douala Airport","city":"Douala","state":"Littoral","country":"Cameroon","woeid":"12512348"},{"code":"DLC","lat":"38.9617","lon":"121.543","name":"Chou Shui Tzu Airport","city":"Dalian","state":"Liaoning","country":"China","woeid":"23388254"},{"code":"DME","lat":"55.4025","lon":"37.9136","name":"Domodedovo Airport","city":"Podol'sk","state":"Moskovskaya Oblast","country":"Russia","woeid":"12515946"},{"code":"DMM","lat":"26.4722","lon":"49.8058","name":"King Fahd International Airport","city":"Khuwaylidiyah","state":"Ash Sharqiyah","country":"Saudi Arabia","woeid":"12517346"},{"code":"DOH","lat":"25.2592","lon":"51.5658","name":"Doha International Airport","city":"Doha","state":"Doha","country":"Qatar","woeid":"12515487"},{"code":"DPS","lat":"-8.7486","lon":"115.165","name":"Bali International Airport","city":"Denpasar","state":"Bali","country":"Indonesia","woeid":"12513453"},{"code":"DRS","lat":"51.1688","lon":"13.7899","name":"Ottendorf Okrilla Highway Strip Airport","city":"Ottendorf-Okrilla","state":"Saxony","country":"Germany","woeid":"12513205"},{"code":"DTM","lat":"51.5123","lon":"7.60451","name":"Dortmund Airport","city":"Dortmund","state":"North Rhine-Westphalia","country":"Germany","woeid":"23046924"},{"code":"DTW","lat":"42.2327","lon":"-83.3412","name":"Detroit Metropolitan Wayne County Airport","city":"Detroit","state":"Michigan","country":"United States","woeid":"12519481"},{"code":"DUB","lat":"53.4272","lon":"-6.24418","name":"Dublin Airport","city":"Cloghran","state":"","country":"Ireland","woeid":"23388266"},{"code":"DUS","lat":"51.2794","lon":"6.76481","name":"Dusseldorf International Airport","city":"Dusseldorf","state":"North Rhine-Westphalia","country":"Germany","woeid":"23024911"},{"code":"DXB","lat":"25.2509","lon":"55.3629","name":"Dubai International Airport","city":"Dubai","state":"Dubai","country":"United Arab Emirates","woeid":"23388362"},{"code":"DYU","lat":"38.5785","lon":"68.7773","name":"Tajikistan","city":"Dushanbe","state":"Karategin","country":"Tajikistan","woeid":"23424961"},{"code":"EDI","lat":"55.9486","lon":"-3.36431","name":"Edinburgh International Airport","city":"Edinburgh","state":"Scotland","country":"United Kingdom","woeid":"22463734"},{"code":"EIN","lat":"51.4463","lon":"5.39212","name":"Eindhoven Airport","city":"Eindhoven","state":"North Brabant","country":"Netherlands","woeid":"12515087"},{"code":"EMA","lat":"52.8258","lon":"-1.33094","name":"East Midlands International Airport","city":"Derby","state":"England","country":"United Kingdom","woeid":"22462097"},{"code":"ESB","lat":"40.1289","lon":"32.9961","name":"Esenboga Airport","city":"Çubuk","state":"Ankara","country":"Turkey","woeid":"12517889"},{"code":"EVN","lat":"40.1573","lon":"44.4065","name":"Yerevan-Parakar Airport","city":"Yerevan","state":"Armavir","country":"Armenia","woeid":"12510427"},{"code":"EWR","lat":"40.6924","lon":"-74.1843","name":"Newark International Airport","city":"Newark","state":"New Jersey","country":"United States","woeid":"12521127"},{"code":"EXT","lat":"50.7303","lon":"-3.4166","name":"Exeter Airport","city":"Exeter","state":"England","country":"United Kingdom","woeid":"22464406"},{"code":"EZE","lat":"-34.82","lon":"-58.5333","name":"Ministro Pistarini International Airport","city":"Ezeiza","state":"Buenos Aires","country":"Argentina","woeid":"12510496"},{"code":"FAI","lat":"64.8183","lon":"-147.866","name":"Fairbanks International Airport","city":"Fairbanks","state":"Alaska","country":"United States","woeid":"12519682"},{"code":"FAO","lat":"37.0154","lon":"-7.97197","name":"Faro Airport","city":"Faro","state":"Faro","country":"Portugal","woeid":"12515442"},{"code":"FCO","lat":"41.8026","lon":"12.2551","name":"Leonardo da Vinci International Airport","city":"Rome","state":"Lazio","country":"Italy","woeid":"22318195"},{"code":"FDH","lat":"47.6747","lon":"9.52088","name":"Friedrichshafen Airport","city":"Meckenbeuren","state":"Baden-Wurttemberg","country":"Germany","woeid":"22244457"},{"code":"FIH","lat":"-4.3847","lon":"15.445","name":"Kinshasa N Djili International Airport","city":"Kinshasa","state":"Kinshasa","country":"Democratic Republic of Congo","woeid":"12511963"},{"code":"FKB","lat":"48.781","lon":"8.08678","name":"Baden-Airpark","city":"Rheinmünster","state":"Baden-Wurttemberg","country":"Germany","woeid":"22269415"},{"code":"FLL","lat":"26.0722","lon":"-80.1354","name":"Fort Lauderdale Hollywood International Airport","city":"Dania Beach","state":"Florida","country":"United States","woeid":"12519836"},{"code":"FLR","lat":"43.8097","lon":"11.2003","name":"Florence Airport","city":"Florence","state":"Tuscany","country":"Italy","woeid":"12513846"},{"code":"FMO","lat":"52.1312","lon":"7.69163","name":"Munster-Osnabruck International Airport","city":"Greven","state":"North Rhine-Westphalia","country":"Germany","woeid":"22206577"},{"code":"FNC","lat":"32.6919","lon":"-16.7768","name":"Funchal Airport","city":"Madeira","state":"Madeira","country":"Portugal","woeid":"12523046"},{"code":"FOC","lat":"26.0833","lon":"119.283","name":"Fuzhou Airport","city":"Fuzhou","state":"Fujian","country":"China","woeid":"12523107"},{"code":"FRA","lat":"50.0483","lon":"8.57041","name":"Frankfurt International Airport","city":"Frankfurt","state":"Hesse","country":"Germany","woeid":"22981759"},{"code":"FUE","lat":"28.3997","lon":"-13.9998","name":"Puerto del Rosario Airport","city":"Antigua","state":"Canary Islands","country":"Spain","woeid":"12517563"},{"code":"FUK","lat":"33.5971","lon":"130.443","name":"Fukuoka Airport","city":"Fukuoka-shi","state":"Fukuoka Prefecture","country":"Japan","woeid":"23388316"},{"code":"FWA","lat":"40.9883","lon":"-85.1899","name":"Fort Wayne Municipal Airport-Baer Field","city":"Fort Wayne","state":"Indiana","country":"United States","woeid":"12519784"},{"code":"GCM","lat":"19.2925","lon":"-81.3589","name":"Owen Roberts International Airport","city":"Georgetown","state":"Grand Cayman","country":"Cayman Islands","woeid":"12512345"},{"code":"GDL","lat":"20.5347","lon":"-103.322","name":"Don Miguel Hidalgo International Airport","city":"Tlajomulco de Zúñiga","state":"Jalisco","country":"Mexico","woeid":"12514863"},{"code":"GDN","lat":"54.3821","lon":"18.454","name":"Rebiechowo Airport","city":"Gdansk","state":"Pomorskie","country":"Poland","woeid":"12515381"},{"code":"GIG","lat":"-22.8094","lon":"-43.25","name":"Rio de Janeiro-Antonio Carlos Jobim Internationa","city":"Rio de Janeiro","state":"Rio de Janeiro","country":"Brazil","woeid":"12511292"},{"code":"GLA","lat":"55.8646","lon":"-4.43234","name":"Glasgow International Airport","city":"Paisley","state":"Scotland","country":"United Kingdom","woeid":"22482705"},{"code":"GOT","lat":"57.6693","lon":"12.2957","name":"Gothenburg Airport","city":"Härryda","state":"Vastra Gotaland","country":"Sweden","woeid":"12517657"},{"code":"GRO","lat":"41.8992","lon":"2.7646","name":"Gerona Airport","city":"Vilobí d'Onyar","state":"Catalonia","country":"Spain","woeid":"23268768"},{"code":"GRR","lat":"42.8841","lon":"-85.5307","name":"Gerald R. Ford International Airport","city":"Grand Rapids","state":"Michigan","country":"United States","woeid":"12520445"},{"code":"GRU","lat":"-23.435","lon":"-46.4728","name":"Governador Andre Franco Montoro International Ai","city":"Guarulhos","state":"Sao Paulo","country":"Brazil","woeid":"12511170"},{"code":"GRZ","lat":"46.9902","lon":"15.4389","name":"Graz Airport","city":"Feldkirchen","state":"Styria","country":"Austria","woeid":"22014356"},{"code":"GSO","lat":"36.1038","lon":"-79.9427","name":"Triad International Airport","city":"Greensboro","state":"North Carolina","country":"United States","woeid":"12522200"},{"code":"GSP","lat":"34.8907","lon":"-82.2167","name":"Greenville Spartanburg International Airport","city":"Greer","state":"South Carolina","country":"United States","woeid":"12520010"},{"code":"GUA","lat":"14.5819","lon":"-90.5275","name":"La Aurora Airport","city":"Guatemala City","state":"Guatemala","country":"Guatemala","woeid":"12513336"},{"code":"GUM","lat":"13.4833","lon":"144.796","name":"Antonio B Won Pat International Airport","city":"Hagåtña","state":"Guam","country":"United States","woeid":"12523115"},{"code":"GVA","lat":"46.2329","lon":"6.10682","name":"Geneva Airport","city":"Geneva","state":"Canton of Geneva","country":"Switzerland","woeid":"23365569"},{"code":"GYD","lat":"40.3781","lon":"49.8028","name":"Azerbaijan","city":"Baku","state":"Baki","country":"Azerbaijan","woeid":"23424741"},{"code":"HAJ","lat":"52.4586","lon":"9.69459","name":"Hannover International Airport","city":"Langenhagen","state":"Lower Saxony","country":"Germany","woeid":"22235735"},{"code":"HAK","lat":"20.0204","lon":"110.348","name":"Haikou Airport","city":"Haikou","state":"Hainan","country":"China","woeid":"12512065"},{"code":"HAM","lat":"53.6321","lon":"10.0042","name":"Hamburg Airport","city":"Hamburg","state":"Hamburg","country":"Germany","woeid":"22211603"},{"code":"HAN","lat":"21.2263","lon":"105.815","name":"Noi Bai Airport","city":"Hanoi","state":"Ha Noi","country":"Vietnam","woeid":"12522936"},{"code":"HAV","lat":"22.9894","lon":"-82.4075","name":"Jose Marti International Airport","city":"Wajay","state":"Ciudad de la Habana","country":"Cuba","woeid":"12512466"},{"code":"HEL","lat":"60.3243","lon":"24.9688","name":"Helsinki Vantaa Airport","city":"Vantaa","state":"Southern Finland","country":"Finland","woeid":"12512766"},{"code":"HER","lat":"35.3397","lon":"25.1836","name":"Iraklion Airport","city":"Iraklio","state":"Kriti","country":"Greece","woeid":"12513291"},{"code":"HET","lat":"40.8543","lon":"111.821","name":"Huhehaote Airport","city":"Hohhot","state":"Nei Mongol","country":"China","woeid":"12512080"},{"code":"HFE","lat":"31.7712","lon":"117.301","name":"Hefei-Luogang Airport","city":"Hefei","state":"Anhui","country":"China","woeid":"12512070"},{"code":"HGH","lat":"30.3332","lon":"120.234","name":"Jianoiao Airport","city":"Hangzhou","state":"Zhejiang","country":"China","woeid":"12512090"},{"code":"HHN","lat":"49.9454","lon":"7.26851","name":"Frankfurt-Hahn Airport","city":"Dickenschied","state":"Rheinland-Pfalz","country":"Germany","woeid":"22991139"},{"code":"HIR","lat":"-9.4211","lon":"160.053","name":"Henderson Airport","city":"Honiara","state":"Guadalcanal","country":"Solomon Islands","woeid":"12511006"},{"code":"HKG","lat":"22.3124","lon":"113.929","name":"Hong Kong International Airport","city":"Hong Kong","state":"Hong Kong Island","country":"Hong Kong","woeid":"24875607"},{"code":"HND","lat":"35.5533","lon":"139.771","name":"Tokyo International Airport","city":"Tokyo","state":"Tokyo Prefecture","country":"Japan","woeid":"23388311"},{"code":"HNL","lat":"21.3358","lon":"-157.919","name":"Honolulu International Airport","city":"Honolulu","state":"Hawaii","country":"United States","woeid":"12520216"},{"code":"HOU","lat":"29.6572","lon":"-95.2795","name":"William P Hobby Airport","city":"Houston","state":"Texas","country":"United States","woeid":"12522451"},{"code":"HRB","lat":"45.6281","lon":"126.252","name":"Harbin Yangjiagang Airport","city":"Harbin","state":"Heilongjiang","country":"China","woeid":"12512069"},{"code":"HRG","lat":"27.1858","lon":"33.7981","name":"Hurghada Airport","city":"Bor Safajah","state":"Al Bahr al Ahmar","country":"Egypt","woeid":"12512692"},{"code":"HYD","lat":"17.4522","lon":"78.4629","name":"Begumpet Airport","city":"Hyderabad","state":"Andhra Pradesh","country":"India","woeid":"12513597"},{"code":"IAD","lat":"38.9556","lon":"-77.4484","name":"Dulles International Airport","city":"Washington","state":"Virginia","country":"United States","woeid":"12519544"},{"code":"IAH","lat":"29.9784","lon":"-95.3424","name":"George Bush Intercontinental Airport","city":"Houston","state":"Texas","country":"United States","woeid":"12520245"},{"code":"IBZ","lat":"38.8755","lon":"1.36851","name":"Ibiza Airport","city":"San José","state":"Balearic Islands","country":"Spain","woeid":"12517548"},{"code":"ICN","lat":"37.4534","lon":"126.657","name":"New Incheon International Airport","city":"Incheon","state":"Incheon","country":"South Korea","woeid":"24554859"},{"code":"IFP","lat":"35.1657","lon":"-114.557","name":"Laughlin-Bullhead International Airport","city":"Bullhead City","state":"Arizona","country":"United States","woeid":"12518972"},{"code":"IKA","lat":"35.5683","lon":"51.4436","name":"Imam Khomeini International Airport","city":"Tehran","state":"Tehran","country":"Iran","woeid":"2245727"},{"code":"IKT","lat":"52.2604","lon":"104.404","name":"Irkutsk Southeast Airport","city":"Irkutsk","state":"Irkutskaya Oblast","country":"Russia","woeid":"12516044"},{"code":"ILN","lat":"39.4348","lon":"-83.7982","name":"Airborne Airpark","city":"Wilmington","state":"Ohio","country":"United States","woeid":"12518539"},{"code":"IND","lat":"39.7322","lon":"-86.2707","name":"Indianapolis International Airport","city":"Indianapolis","state":"Indiana","country":"United States","woeid":"12520294"},{"code":"INN","lat":"47.2591","lon":"11.3566","name":"Innsbruck Airport","city":"Innsbruck","state":"Tyrol","country":"Austria","woeid":"12510823"},{"code":"ISB","lat":"33.6147","lon":"73.0967","name":"Islamabad International Airport","city":"Råwalpindi","state":"Punjab","country":"Pakistan","woeid":"12515238"},{"code":"IST","lat":"40.9857","lon":"28.8163","name":"Ataturk Hava Limani Airport","city":"Bakırköy","state":"Istanbul","country":"Turkey","woeid":"23388365"},{"code":"ITM","lat":"34.7857","lon":"135.439","name":"Osaka International Airport","city":"Itami-shi","state":"Hyogo Prefecture","country":"Japan","woeid":"12514009"},{"code":"JAX","lat":"30.4914","lon":"-81.676","name":"Jacksonville International Airport","city":"Jacksonville","state":"Florida","country":"United States","woeid":"12520339"},{"code":"JED","lat":"21.706","lon":"39.1386","name":"King Abdul Aziz International Airport","city":"Jeddah","state":"Makka","country":"Saudi Arabia","woeid":"23388353"},{"code":"JER","lat":"49.205","lon":"-2.19729","name":"Jersey Airport","city":"St. Peter","state":"Channel Islands","country":"United Kingdom","woeid":"12514041"},{"code":"JFK","lat":"40.6437","lon":"-73.79","name":"John F Kennedy International Airport","city":"New York","state":"New York","country":"United States","woeid":"12520380"},{"code":"JNB","lat":"-26.1219","lon":"28.2467","name":"OR Tambo International Airport","city":"Johannesburg","state":"Gauteng","country":"South Africa","woeid":"12517424"},{"code":"KBP","lat":"50.3405","lon":"30.9025","name":"Borispol Airport","city":"Kiev","state":"Kyyivs´ka Oblast´","country":"Ukraine","woeid":"12518215"},{"code":"KEF","lat":"63.9853","lon":"-22.6042","name":"Keflavik International","city":"Reykjavik","state":"Keflavik","country":"Iceland","woeid":"12513445"},{"code":"KGD","lat":"54.8056","lon":"21.3394","name":"Kaliningradskaya Oblast","city":"Kaliningrad","state":"Kaliningradskaya Oblast","country":"Russia","woeid":"2346938"},{"code":"KGS","lat":"36.7956","lon":"27.0917","name":"Kos Airport","city":"Antimacheia","state":"Notio Aigaio","country":"Greece","woeid":"12513301"},{"code":"KHI","lat":"24.8984","lon":"67.1518","name":"Karachi Civil Airport","city":"Karachi","state":"Sindh","country":"Pakistan","woeid":"12515241"},{"code":"KHN","lat":"28.6316","lon":"115.931","name":"Nanchang New Airport","city":"Nanchang","state":"Jiangxi","country":"China","woeid":"12512149"},{"code":"KHV","lat":"48.5241","lon":"135.171","name":"Khabarovsk Northeast Airport","city":"Khabarovsk","state":"Khabarovskiy Kray","country":"Russia","woeid":"12516130"},{"code":"KIV","lat":"46.9296","lon":"28.9389","name":"Kishinev Southeast Airport","city":"Chisinau","state":"Chisinau","country":"Moldova","woeid":"12514720"},{"code":"KIX","lat":"34.4295","lon":"135.244","name":"Kansai International Airport","city":"Tajiri-cho","state":"Osaka Prefecture","country":"Japan","woeid":"12523041"},{"code":"KJA","lat":"56.1688","lon":"92.4987","name":"Yelovaya Airport","city":"Kansk","state":"Krasnoyarskiy Kray","country":"Russia","woeid":"12517249"},{"code":"KMG","lat":"24.966","lon":"102.733","name":"Wuchia Pa Airport","city":"Kunming","state":"Yunnan","country":"China","woeid":"12512231"},{"code":"KRK","lat":"50.0741","lon":"19.8011","name":"Balice Airport","city":"Zabierzów","state":"Małopolskie","country":"Poland","woeid":"12515280"},{"code":"KRR","lat":"45.0441","lon":"39.1442","name":"Krasnodar-Pashovskiy Airport","city":"Krasnodar","state":"Krasnodarskiy Kray","country":"Russia","woeid":"12516256"},{"code":"KRT","lat":"15.5917","lon":"32.5533","name":"Khartoum Airport","city":"Khartoum","state":"Al Khartum","country":"Sudan","woeid":"12517601"},{"code":"KTM","lat":"27.6969","lon":"85.3594","name":"Tribhuvan International Airport","city":"Kathmandu","state":"Central","country":"Nepal","woeid":"12515135"},{"code":"KTW","lat":"50.4819","lon":"19.0772","name":"Zendek Airport","city":"Ożarowice","state":"Sląskie","country":"Poland","woeid":"12515408"},{"code":"KUF","lat":"53.5067","lon":"50.166","name":"Kurumoch Airport","city":"Syzran'","state":"Samarskaya Oblast","country":"Russia","woeid":"12516311"},{"code":"KUL","lat":"2.77859","lon":"101.689","name":"Kuala Lumpur International Airport","city":"Sepang","state":"Putrajaya","country":"Malaysia","woeid":"28752278"},{"code":"KWE","lat":"26.9015","lon":"106.585","name":"Guizhou","city":"Guiyang","state":"Guizhou","country":"China","woeid":"12578007"},{"code":"KWI","lat":"29.2442","lon":"47.9748","name":"Kuwait International Airport","city":"Kuwait City","state":"Al Farwaniyah","country":"Kuwait","woeid":"23388328"},{"code":"KWL","lat":"25.1921","lon":"110.305","name":"Li Chia Tsun Airport","city":"Guilin","state":"Guangxi","country":"China","woeid":"12512117"},{"code":"LAD","lat":"-8.8547","lon":"13.2342","name":"Luanda 4 de Fevereiro Airport","city":"Luanda","state":"Luanda","country":"Angola","woeid":"12510439"},{"code":"LAS","lat":"36.0806","lon":"-115.143","name":"Mccarran International Airport","city":"Las Vegas","state":"Nevada","country":"United States","woeid":"12520849"},{"code":"LAX","lat":"33.9456","lon":"-118.391","name":"Los Angeles International Airport","city":"Los Angeles","state":"California","country":"United States","woeid":"12520706"},{"code":"LBA","lat":"53.8685","lon":"-1.66123","name":"Leeds Bradford Airport","city":"Leeds","state":"England","country":"United Kingdom","woeid":"22471856"},{"code":"LBV","lat":"0.4592","lon":"9.4153","name":"Libreville Leon M Ba Airport","city":"Libreville","state":"Estuaire","country":"Gabon","woeid":"12512994"},{"code":"LCA","lat":"34.8789","lon":"33.6303","name":"Larnaca Airport","city":"Larnaca","state":"Rep. Cyprus","country":"Cyprus","woeid":"12512501"},{"code":"LCY","lat":"51.5039","lon":"0.04981","name":"London City Airport","city":"London","state":"England","country":"United Kingdom","woeid":"22475376"},{"code":"LED","lat":"59.9667","lon":"30.3","name":"Pulkuvo 2 Airport","city":"St. Petersburg","state":"St. Peterburg","country":"Russia","woeid":"12523047"},{"code":"LEJ","lat":"51.4197","lon":"12.2201","name":"Leipzig-Halle Airport","city":"Schkeuditz","state":"Saxony","country":"Germany","woeid":"22275261"},{"code":"LGA","lat":"40.7731","lon":"-73.8756","name":"LaGuardia Airport","city":"Flushing","state":"New York","country":"United States","woeid":"12520509"},{"code":"LGG","lat":"50.64","lon":"5.44035","name":"Bierset Airport","city":"Velroux","state":"Liege","country":"Belgium","woeid":"12510845"},{"code":"LGW","lat":"51.1568","lon":"-0.16988","name":"London Gatwick Airport","city":"Horley","state":"England","country":"United Kingdom","woeid":"23387567"},{"code":"LHE","lat":"31.521","lon":"74.3933","name":"Lahore Airport","city":"Lahore","state":"Punjab","country":"Pakistan","woeid":"12515245"},{"code":"LHR","lat":"51.4703","lon":"-0.45342","name":"London Heathrow Airport","city":"Hounslow","state":"England","country":"United Kingdom","woeid":"23382429"},{"code":"LHW","lat":"36.0167","lon":"103.75","name":"Lanzhou Airport","city":"Lanzhou","state":"甘肃省","country":"China","woeid":"12714026"},{"code":"LIM","lat":"-12.0228","lon":"-77.1081","name":"Jorge Chavez Airport","city":"Ventanilla","state":"Provincia Constitucional del Cal","country":"Peru","woeid":"23388342"},{"code":"LIN","lat":"45.4558","lon":"9.27269","name":"Linate Airport","city":"Peschiera Borromeo","state":"Lombardy","country":"Italy","woeid":"22314960"},{"code":"LIS","lat":"38.7701","lon":"-9.13775","name":"Lisbon Airport","city":"Lisbon","state":"Lisbon","country":"Portugal","woeid":"22405520"},{"code":"LIT","lat":"34.7278","lon":"-92.219","name":"Adams Field Airport","city":"Little Rock","state":"Arkansas","country":"United States","woeid":"12518526"},{"code":"LJU","lat":"46.2247","lon":"14.4608","name":"Ljubljana Airport","city":"Ljubljana","state":"Kranj","country":"Slovenia","woeid":"12517513"},{"code":"LNZ","lat":"48.2338","lon":"14.1905","name":"Linz Airport","city":"Hoersching","state":"Upper Austria","country":"Austria","woeid":"22016347"},{"code":"LOS","lat":"6.575","lon":"3.3222","name":"Lagos Murtala Muhammed Airport","city":"Ikeja","state":"Lagos","country":"Nigeria","woeid":"12515073"},{"code":"LPA","lat":"27.9372","lon":"-15.3828","name":"Las Palmas Airport","city":"Telde","state":"Canary Islands","country":"Spain","woeid":"12517553"},{"code":"LPL","lat":"53.3371","lon":"-2.85746","name":"Liverpool John Lennon Airport","city":"Liverpool","state":"England","country":"United Kingdom","woeid":"22473264"},{"code":"LTN","lat":"51.8796","lon":"-0.37548","name":"London Luton Airport","city":"Luton","state":"England","country":"United Kingdom","woeid":"22477104"},{"code":"LUX","lat":"49.6269","lon":"6.20685","name":"Luxembourg Airport","city":"Sandweiler","state":"Luxemburg","country":"Luxembourg","woeid":"12514635"},{"code":"LYS","lat":"45.7198","lon":"5.08245","name":"Lyon Airport","city":"Colombier","state":"Rhone-Alpes","country":"France","woeid":"12512963"},{"code":"MAA","lat":"12.9849","lon":"80.1634","name":"Chennai International Airport","city":"Kanchipuram","state":"Tamil Nadu","country":"India","woeid":"12513629"},{"code":"MAD","lat":"40.4684","lon":"-3.56769","name":"Barajas Airport","city":"Madrid","state":"Madrid","country":"Spain","woeid":"12517539"},{"code":"MAH","lat":"39.8652","lon":"4.22383","name":"Menorca Airport","city":"Mao","state":"Balearic Islands","country":"Spain","woeid":"12517557"},{"code":"MAN","lat":"53.365","lon":"-2.27089","name":"Manchester International Airport","city":"Manchester","state":"England","country":"United Kingdom","woeid":"22478032"},{"code":"MBJ","lat":"18.5042","lon":"-77.9125","name":"Sangster International Airport","city":"Montego Bay","state":"Saint James","country":"Jamaica","woeid":"12514046"},{"code":"MCI","lat":"39.2992","lon":"-94.7171","name":"Kansas City International Airport","city":"Kansas City","state":"Missouri","country":"United States","woeid":"12520420"},{"code":"MCO","lat":"28.4418","lon":"-81.3115","name":"Orlando International Airport","city":"Orlando","state":"Florida","country":"United States","woeid":"12521243"},{"code":"MCT","lat":"23.5917","lon":"58.2792","name":"Seeb International Airport","city":"Muscat","state":"Masqat","country":"Oman","woeid":"12514813"},{"code":"MDW","lat":"41.7875","lon":"-87.7416","name":"Chicago Midway International Airport","city":"Chicago","state":"Illinois","country":"United States","woeid":"12519178"},{"code":"MED","lat":"24.5517","lon":"39.7025","name":"Madinah International Airport","city":"Al Madinah","state":"Al Madinah","country":"Saudi Arabia","woeid":"12517353"},{"code":"MEL","lat":"-37.6759","lon":"144.844","name":"Melbourne International Airport","city":"Melbourne","state":"Victoria","country":"Australia","woeid":"23388202"},{"code":"MEM","lat":"35.047","lon":"-89.9823","name":"Memphis International Airport","city":"Memphis","state":"Tennessee","country":"United States","woeid":"12520895"},{"code":"MEX","lat":"19.4344","lon":"-99.0742","name":"Lic Benito Juarez International Airport","city":"Mexico City","state":"Distrito Federal","country":"Mexico","woeid":"12514910"},{"code":"MFM","lat":"22.1845","lon":"113.532","name":"Macau Airport","city":"Macau","state":"Macau","country":"Macau","woeid":"12523336"},{"code":"MHD","lat":"36.2358","lon":"59.6392","name":"Mashhad Airport","city":"Mashhad","state":"Khorasan","country":"Iran","woeid":"12513744"},{"code":"MIA","lat":"25.7953","lon":"-80.2727","name":"Miami International Airport","city":"Miami","state":"Florida","country":"United States","woeid":"12520923"},{"code":"MIR","lat":"35.7611","lon":"10.7556","name":"Habib Bourguiba International Airport","city":"Sidi al Ghudamisi","state":"Al Munastir","country":"Tunisia","woeid":"12517860"},{"code":"MJV","lat":"37.7697","lon":"-0.82098","name":"Murcia San Javier Airport","city":"San Javier","state":"Murcia","country":"Spain","woeid":"12517559"},{"code":"MKE","lat":"42.9471","lon":"-87.9051","name":"General Mitchell International Airport","city":"Milwaukee","state":"Wisconsin","country":"United States","woeid":"12519880"},{"code":"MLA","lat":"35.8586","lon":"14.4781","name":"Luqa Airport","city":"Curmi","state":"South Eastern","country":"Malta","woeid":"12514808"},{"code":"MLE","lat":"4.167","lon":"73.4974","name":"Male International Airport","city":"Male","state":"Maale","country":"Maldives","woeid":"12514816"},{"code":"MMX","lat":"55.5406","lon":"13.3666","name":"Sturup Airport","city":"Svedala","state":"Skane","country":"Sweden","woeid":"23318094"},{"code":"MNL","lat":"14.5114","lon":"121.016","name":"Ninoy Aquino International Airport","city":"Parañaque","state":"National Capital Region","country":"Philippines","woeid":"12515637"},{"code":"MRS","lat":"43.4411","lon":"5.22087","name":"Marignane Airport","city":"Marignane","state":"Provence-alpes-cote d'Azur","country":"France","woeid":"12512931"},{"code":"MRU","lat":"-20.4272","lon":"57.6767","name":"Plaisance International Airport","city":"Mahebourg","state":"Grand Port","country":"Mauritius","woeid":"12514796"},{"code":"MSP","lat":"44.8793","lon":"-93.1987","name":"Minneapolis St Paul International Airport","city":"St. Paul","state":"Minnesota","country":"United States","woeid":"12520966"},{"code":"MSQ","lat":"53.8873","lon":"28.0344","name":"Velikiydvor Airport","city":"Minsk","state":"Minskaya Voblasts'","country":"Belarus","woeid":"12510995"},{"code":"MSY","lat":"29.983","lon":"-90.2569","name":"New Orleans International Airport","city":"Kenner","state":"Louisiana","country":"United States","woeid":"12521116"},{"code":"MTY","lat":"25.7783","lon":"-100.107","name":"Gen Mariano Escobedo International Airport","city":"Pesquería","state":"Nuevo Leon","country":"Mexico","woeid":"12514877"},{"code":"MUC","lat":"48.354","lon":"11.7816","name":"Franz-Josef-Strauss Airport","city":"Oberding","state":"Bavaria","country":"Germany","woeid":"22923040"},{"code":"MXP","lat":"45.6314","lon":"8.72284","name":"Malpensa International Airport","city":"Cardano al Campo","state":"Lombardy","country":"Italy","woeid":"22306432"},{"code":"NAN","lat":"-17.7558","lon":"177.446","name":"Nadi International Airport","city":"Nadi","state":"Western","country":"Fiji","woeid":"12523183"},{"code":"NAP","lat":"40.8837","lon":"14.2815","name":"Naples International Airport","city":"Naples","state":"Campania","country":"Italy","woeid":"12513810"},{"code":"NAS","lat":"25.0406","lon":"-77.4719","name":"Nassau International Airport","city":"Nassau","state":"New Providence","country":"Bahamas","woeid":"12510874"},{"code":"NBO","lat":"-1.31697","lon":"36.9222","name":"Jomo Kenyatta International Airport","city":"Nairobi","state":"Nairobi Area","country":"Kenya","woeid":"12514067"},{"code":"NCE","lat":"43.6638","lon":"7.21286","name":"Nice-Cote d'Azur Airport","city":"Nice","state":"Provence-alpes-cote d'Azur","country":"France","woeid":"22143543"},{"code":"NCL","lat":"55.0374","lon":"-1.70962","name":"Newcastle International Airport","city":"Newcastle","state":"England","country":"United Kingdom","woeid":"22480195"},{"code":"NGB","lat":"29.8333","lon":"121.533","name":"Ningbo Airport","city":"Jiangshan","state":"Zhejiang","country":"China","woeid":"12523321"},{"code":"NGO","lat":"34.8624","lon":"136.811","name":"Chubu International Airport","city":"Tokoname-shi","state":"Aichi Prefecture","country":"Japan","woeid":"28298951"},{"code":"NKG","lat":"32.0833","lon":"118.8","name":"Nanjing Lukou International Airport","city":"Nanjing","state":"Jiangsu","country":"China","woeid":"12523190"},{"code":"NNG","lat":"22.6183","lon":"108.179","name":"Nanning-Wuyu Airport","city":"Wuxu","state":"Guangxi","country":"China","woeid":"12512151"},{"code":"NRN","lat":"51.6031","lon":"6.1417","name":"Airport Weeze","city":"Weeze","state":"North Rhine-Westphalia","country":"Germany","woeid":"12513156"},{"code":"NRT","lat":"35.7491","lon":"140.389","name":"Narita International Airport","city":"Narita-shi","state":"Chiba Prefecture","country":"Japan","woeid":"12513999"},{"code":"NTE","lat":"47.1573","lon":"-1.60205","name":"Chateau Bougon Airport","city":"Bouguenais","state":"Pays de la Loire","country":"France","woeid":"12512881"},{"code":"NUE","lat":"49.4946","lon":"11.0785","name":"Nurnberg Airport","city":"Nuremberg","state":"Bavaria","country":"Germany","woeid":"22257687"},{"code":"NYO","lat":"58.7833","lon":"16.9224","name":"Skavsta Airport","city":"Nykoping","state":"Sodermanland","country":"Sweden","woeid":"12517663"},{"code":"OAK","lat":"37.7158","lon":"-122.209","name":"Oakland International Airport","city":"Oakland","state":"California","country":"United States","woeid":"12520917"},{"code":"ODS","lat":"46.4402","lon":"30.6764","name":"Odessa Central Airport","city":"Odesa","state":"Odes´ka Oblast´","country":"Ukraine","woeid":"12518374"},{"code":"OKA","lat":"24.8289","lon":"125.146","name":"Shimojishima Airport","city":"Naha-shi","state":"Okinawa Prefecture","country":"Japan","woeid":"12514018"},{"code":"OKC","lat":"35.3981","lon":"-97.5974","name":"Will Rogers World Airport","city":"Oklahoma City","state":"Oklahoma","country":"United States","woeid":"12522444"},{"code":"OLB","lat":"40.8994","lon":"9.51616","name":"Olbia Costa Smeralda Airport","city":"Terranova","state":"Sardinia","country":"Italy","woeid":"12513840"},{"code":"OMA","lat":"41.3","lon":"-95.8998","name":"Eppley Airfield","city":"Omaha","state":"Nebraska","country":"United States","woeid":"12519653"},{"code":"ONT","lat":"34.062","lon":"-117.594","name":"Ontario International Airport","city":"Ontario","state":"California","country":"United States","woeid":"12521228"},{"code":"OPO","lat":"41.2372","lon":"-8.67341","name":"Porto Airport","city":"Maia","state":"Porto","country":"Portugal","woeid":"12515455"},{"code":"ORD","lat":"41.9796","lon":"-87.8825","name":"Chicago O'Hare International Airport","city":"Chicago","state":"Illinois","country":"United States","woeid":"12521200"},{"code":"ORF","lat":"36.8977","lon":"-76.2154","name":"Norfolk International Airport","city":"Norfolk","state":"Virginia","country":"United States","woeid":"12521146"},{"code":"ORK","lat":"51.8463","lon":"-8.48897","name":"Cork Airport","city":"Fivemilebridge","state":"","country":"Ireland","woeid":"12512720"},{"code":"ORN","lat":"35.6244","lon":"-0.6186","name":"Es Senia Airport","city":"Oran Rp","state":"Oran","country":"Algeria","woeid":"12510326"},{"code":"ORY","lat":"48.7261","lon":"2.36411","name":"Paris Orly Airport","city":"Paris","state":"Ile-de-France","country":"France","woeid":"22144181"},{"code":"OSL","lat":"60.1947","lon":"11.1005","name":"Oslo Gardermoen Airport","city":"Gardermoen","state":"Akershus Fylke","country":"Norway","woeid":"12515119"},{"code":"OTP","lat":"44.5656","lon":"26.1029","name":"Otopeni Airport","city":"Bucharest","state":"Ilfov","country":"Romania","woeid":"12515558"},{"code":"OVB","lat":"55.0078","lon":"82.6508","name":"Tolmachevo Airport","city":"Novosibirsk","state":"Novosibirskaya Oblast","country":"Russia","woeid":"12517016"},{"code":"PAD","lat":"51.6126","lon":"8.61871","name":"Paderborn-Lippstadt Airport","city":"Büren","state":"North Rhine-Westphalia","country":"Germany","woeid":"22179500"},{"code":"PBI","lat":"26.6909","lon":"-80.0889","name":"Palm Beach International Airport","city":"West Palm Beach","state":"Florida","country":"United States","woeid":"12521288"},{"code":"PDL","lat":"37.7375","lon":"-25.6983","name":"Ponta Delgada Airport","city":"Ponta Delgada","state":"Azores","country":"Portugal","woeid":"12515454"},{"code":"PDX","lat":"45.5867","lon":"-122.587","name":"Portland International Airport","city":"Portland","state":"Oregon","country":"United States","woeid":"12521453"},{"code":"PEK","lat":"40.0724","lon":"116.583","name":"Beijing Capital Airport","city":"Shunyi","state":"Beijing","country":"China","woeid":"12511989"},{"code":"PEN","lat":"5.2975","lon":"100.278","name":"Penang International Airport","city":"Batu Maung","state":"Pulau Pinang","country":"Malaysia","woeid":"12515004"},{"code":"PER","lat":"-31.9336","lon":"115.961","name":"Perth International Airport","city":"Perth","state":"Western Australia","country":"Australia","woeid":"12510761"},{"code":"PFO","lat":"34.7194","lon":"32.4847","name":"Paphos International Airport","city":"Paphos","state":"Rep. Cyprus","country":"Cyprus","woeid":"12512502"},{"code":"PHL","lat":"39.8768","lon":"-75.2419","name":"Philadelphia International Airport","city":"Philadelphia","state":"Pennsylvania","country":"United States","woeid":"12521360"},{"code":"PHX","lat":"33.4376","lon":"-112.03","name":"Sky Harbor International Airport","city":"Phoenix","state":"Arizona","country":"United States","woeid":"12521872"},{"code":"PIK","lat":"55.5091","lon":"-4.6109","name":"Glasgow Prestwick International Airport","city":"Prestwick","state":"Scotland","country":"United Kingdom","woeid":"22484413"},{"code":"PIT","lat":"40.4914","lon":"-80.2328","name":"Pittsburgh International Airport","city":"Coraopolis","state":"Pennsylvania","country":"United States","woeid":"12519983"},{"code":"PMI","lat":"39.5495","lon":"2.73188","name":"Palma de Mallorca Airport","city":"Palma","state":"Balearic Islands","country":"Spain","woeid":"23281165"},{"code":"PMO","lat":"38.1822","lon":"13.1031","name":"Palermo Airport","city":"Cinisi","state":"Sicily","country":"Italy","woeid":"12513842"},{"code":"POM","lat":"-9.4425","lon":"147.219","name":"Port Moresby International Airport","city":"Port Moresby","state":"National Capital","country":"Papua New Guinea","woeid":"12515477"},{"code":"POS","lat":"10.5936","lon":"-61.3386","name":"Piarco Airport","city":"Trinidad","state":"Port of Spain","country":"Trinidad and Tobago","woeid":"12517744"},{"code":"POZ","lat":"52.4284","lon":"16.8208","name":"Lawica Airport","city":"Poznan","state":"Wielkopolskie","country":"Poland","woeid":"12515333"},{"code":"PPT","lat":"-17.5578","lon":"-149.611","name":"Tahiti Faaa Airport","city":"Papeete","state":"Windward Islands","country":"French Polynesia","woeid":"12512832"},{"code":"PRG","lat":"50.1079","lon":"14.2675","name":"Prague Ruzyne Airport","city":"Prague 6","state":"Hlavni mesto Praha","country":"Czech Republic","woeid":"12512558"},{"code":"PSA","lat":"43.6959","lon":"10.3976","name":"Pisa Airport","city":"Pisa","state":"Tuscany","country":"Italy","woeid":"12513850"},{"code":"PTY","lat":"9.07","lon":"-79.3836","name":"Tocumen International Airport","city":"Tocumen","state":"Panama","country":"Panama","woeid":"12515432"},{"code":"PUJ","lat":"18.5675","lon":"-68.3469","name":"Punta Cana Airport","city":"Salvaleón de Higüey","state":"La Altagracia","country":"Dominican Republic","woeid":"12512620"},{"code":"PUS","lat":"35.1777","lon":"128.937","name":"Kimhae International Airport","city":"Busan","state":"Busan","country":"South Korea","woeid":"23388327"},{"code":"PVD","lat":"41.723","lon":"-71.4399","name":"Theodore Francis Green State Airport","city":"Warwick","state":"Rhode Island","country":"United States","woeid":"12522119"},{"code":"PVG","lat":"31.1156","lon":"121.803","name":"Pudong International Airport","city":"Huinan","state":"Shanghai","country":"China","woeid":"23428057"},{"code":"PVR","lat":"20.6819","lon":"-105.248","name":"Lic Gustavo Diaz Ordaz International Airport","city":"Puerto Vallarta","state":"Jalisco","country":"Mexico","woeid":"12514911"},{"code":"RAK","lat":"31.6167","lon":"-8.05","name":"Menara Airport","city":"Marrakesh","state":"Marrakech","country":"Morocco","woeid":"12523044"},{"code":"RDU","lat":"35.8729","lon":"-78.7923","name":"Durham International Airport","city":"Raleigh/Durham","state":"North Carolina","country":"United States","woeid":"12519551"},{"code":"RGN","lat":"16.9064","lon":"96.1389","name":"Mingaladon Airport","city":"Insein","state":"Yangon","country":"Myanmar","woeid":"12510924"},{"code":"RHO","lat":"36.4044","lon":"28.0867","name":"Paradisi Airport","city":"Rodhos","state":"Notio Aigaio","country":"Greece","woeid":"12513316"},{"code":"RIC","lat":"37.5108","lon":"-77.3332","name":"Richmond International Airport","city":"Richmond","state":"Virginia","country":"United States","woeid":"12518996"},{"code":"RIX","lat":"56.9231","lon":"23.9717","name":"Riga Airport","city":"Marupe","state":"Rigas Rajons","country":"Latvia","woeid":"12514576"},{"code":"RNO","lat":"39.5064","lon":"-119.776","name":"Reno-Tahoe International Airport","city":"Reno","state":"Nevada","country":"United States","woeid":"12519047"},{"code":"ROC","lat":"43.1309","lon":"-77.6697","name":"Greater Rochester International Airport","city":"Rochester","state":"New York","country":"United States","woeid":"12519985"},{"code":"ROV","lat":"47.2556","lon":"39.8169","name":"Rostov East Airport","city":"Taganrog","state":"Rostovskaya Oblast","country":"Russia","woeid":"12516787"},{"code":"RSW","lat":"26.5228","lon":"-81.7531","name":"Southwest Florida International Airport","city":"Fort Myers","state":"Florida","country":"United States","woeid":"12521921"},{"code":"RTM","lat":"51.9525","lon":"4.4392","name":"Rotterdam Airport","city":"Rotterdam","state":"South Holland","country":"Netherlands","woeid":"23182361"},{"code":"RUH","lat":"24.9625","lon":"46.7078","name":"King Khalid International Airport","city":"Riyadh","state":"Ar Riyad","country":"Saudi Arabia","woeid":"12517349"},{"code":"SAH","lat":"15.48","lon":"44.2208","name":"Sanaa International Airport","city":"Ar Raudha","state":"San`a´","country":"Yemen","woeid":"12523005"},{"code":"SAN","lat":"32.7299","lon":"-117.195","name":"San Diego International Airport","city":"San Diego","state":"California","country":"United States","woeid":"12520660"},{"code":"SAT","lat":"29.5252","lon":"-98.4729","name":"San Antonio International Airport","city":"San Antonio","state":"Texas","country":"United States","woeid":"12521716"},{"code":"SAW","lat":"40.9928","lon":"29.034","name":"Istanbul Sabiha Gokcen Airport","city":"Umraniye","state":"Istanbul","country":"Turkey","woeid":"23416958"},{"code":"SCL","lat":"-33.39","lon":"-70.785","name":"Arturo Merino Benitez International Airport","city":"Lo Amor","state":"Santiago","country":"Chile","woeid":"12512304"},{"code":"SCQ","lat":"42.8991","lon":"-8.41646","name":"Santiago Airport","city":"Santiago","state":"Galicia","country":"Spain","woeid":"12517569"},{"code":"SDF","lat":"38.1865","lon":"-85.7462","name":"Louisville International Airport","city":"Louisville","state":"Kentucky","country":"United States","woeid":"12521983"},{"code":"SDQ","lat":"18.4292","lon":"-69.6692","name":"De Las Americas International Airport","city":"Santo Domingo","state":"Santo Domingo","country":"Dominican Republic","woeid":"12512616"},{"code":"SEA","lat":"47.4405","lon":"-122.296","name":"Tacoma International Airport","city":"Seattle","state":"Washington","country":"United States","woeid":"12522066"},{"code":"SFO","lat":"37.6148","lon":"-122.392","name":"San Francisco International Airport","city":"San Francisco","state":"California","country":"United States","woeid":"12521721"},{"code":"SGC","lat":"61.3468","lon":"73.4182","name":"Surgut North Airport","city":"Khanty-Mansiysk","state":"Khanty-Mansiyskiy Avtonomnyy Okr","country":"Russia","woeid":"12516957"},{"code":"SGN","lat":"10.8191","lon":"106.658","name":"Tan Son Nhut Airport","city":"Ho Chi Minh City","state":"Ho Chi Minh","country":"Vietnam","woeid":"12522956"},{"code":"SHA","lat":"31.1865","lon":"121.34","name":"Hongqiao Airport","city":"Shanghai","state":"Shanghai","country":"China","woeid":"23388248"},{"code":"SHE","lat":"41.7857","lon":"123.529","name":"Dongta Airport","city":"Shenyang","state":"Liaoning","country":"China","woeid":"12512041"},{"code":"SHJ","lat":"25.3297","lon":"55.5178","name":"Sharjah International Airport","city":"Ajman","state":"Ajman","country":"United Arab Emirates","woeid":"12517739"},{"code":"SIN","lat":"1.3578","lon":"103.991","name":"Singapore Changi Airport","city":"Singapore","state":"South East","country":"Singapore","woeid":"12517525"},{"code":"SIP","lat":"45.0153","lon":"33.9941","name":"Simferopol North Airport","city":"Simferopol'","state":"Krym, Avtonomna Respublika","country":"Ukraine","woeid":"12518424"},{"code":"SJC","lat":"37.3679","lon":"-121.926","name":"Norman Y Mineta San Jose International Airport","city":"San Jose","state":"California","country":"United States","woeid":"12521722"},{"code":"SJD","lat":"23.1564","lon":"-109.723","name":"Los Cabos International Airport","city":"S. Jose del Cabo","state":"Baja California Sur","country":"Mexico","woeid":"12514915"},{"code":"SJO","lat":"9.9919","lon":"-84.2114","name":"Juan Santamaria International Airport","city":"Heredia","state":"Alajuela","country":"Costa Rica","woeid":"12512434"},{"code":"SJU","lat":"18.4367","lon":"-66.0095","name":"Luis Munoz Marin Airport","city":"Carolina","state":"Puerto Rico","country":"United States","woeid":"23388351"},{"code":"SKG","lat":"40.5208","lon":"22.9722","name":"Thessaloniki Airport","city":"Thessaloniki","state":"Kentriki Makedonia","country":"Greece","woeid":"12513329"},{"code":"SLC","lat":"40.7862","lon":"-111.982","name":"Salt Lake City International Airport","city":"Salt Lake City","state":"Utah","country":"United States","woeid":"12521709"},{"code":"SMF","lat":"38.683","lon":"-121.591","name":"Sacramento International Airport","city":"Sacramento","state":"California","country":"United States","woeid":"12521693"},{"code":"SNN","lat":"52.6931","lon":"-8.92047","name":"Shannon Airport","city":"Shannon Airport","state":"","country":"Ireland","woeid":"12512726"},{"code":"SOF","lat":"42.6895","lon":"23.4024","name":"Vrazhdebna Airport","city":"Sofia","state":"Sofiya-Grad","country":"Bulgaria","woeid":"12511552"},{"code":"SOU","lat":"50.9512","lon":"-1.36139","name":"Southampton International Airport","city":"Southampton","state":"England","country":"United Kingdom","woeid":"22488616"},{"code":"SPU","lat":"43.5406","lon":"16.3","name":"Split Airport","city":"Split","state":"Splitsko-Dalmatinska","country":"Croatia","woeid":"12513372"},{"code":"SSA","lat":"-12.9081","lon":"-38.3222","name":"Deputado Luis Eduardo Magalhaes International Ai","city":"Salvador","state":"Nordeste","country":"Brazil","woeid":"12511112"},{"code":"SSH","lat":"27.975","lon":"34.3897","name":"Ras Nasrani Airport","city":"Al Arish","state":"Janub Sina'","country":"Egypt","woeid":"12512706"},{"code":"STL","lat":"38.7414","lon":"-90.3647","name":"Lambert St Louis International Airport","city":"St. Louis","state":"Missouri","country":"United States","woeid":"12520553"},{"code":"STN","lat":"51.8894","lon":"0.26151","name":"London Stansted International Airport","city":"Stansted Mountfitchet","state":"England","country":"United Kingdom","woeid":"22489156"},{"code":"STR","lat":"48.6895","lon":"9.19298","name":"Stuttgart Airport","city":"Stuttgart","state":"Baden-Wurttemberg","country":"Germany","woeid":"22236827"},{"code":"SUF","lat":"38.9087","lon":"16.2443","name":"Lamezia Terme Airport","city":"Case Cervi","state":"Calabria","country":"Italy","woeid":"12513830"},{"code":"SVG","lat":"58.8806","lon":"5.63019","name":"Stavanger Sola Airport","city":"Rage","state":"Rogaland Fylke","country":"Norway","woeid":"12515124"},{"code":"SVO","lat":"55.9621","lon":"37.4189","name":"Sheremtyevo Airport","city":"Zelenograd","state":"Moskovskaya Oblast","country":"Russia","woeid":"12516860"},{"code":"SVQ","lat":"37.4224","lon":"-5.89796","name":"Sevilla Airport","city":"Seville","state":"Andalucia","country":"Spain","woeid":"12517571"},{"code":"SVX","lat":"56.7435","lon":"60.7911","name":"Koltsovo Airport","city":"Yekaterinburg","state":"Sverdlovskaya Oblast","country":"Russia","woeid":"12516207"},{"code":"SXB","lat":"48.5427","lon":"7.63466","name":"Entzheim Airport","city":"Entzheim","state":"Alsace","country":"France","woeid":"12512892"},{"code":"SXF","lat":"52.3886","lon":"13.5188","name":"Berlin-Schonefeld International Airport","city":"Schönefeld","state":"Bundesland Brandenburg","country":"Germany","woeid":"22276234"},{"code":"SXM","lat":"18.0421","lon":"-63.1107","name":"Prinses Juliana International Airport","city":"","state":"St Maarten","country":"Netherlands Antilles","woeid":"12515140"},{"code":"SYD","lat":"-33.9344","lon":"151.168","name":"Kingsford Smith Airport","city":"Sydney","state":"New South Wales","country":"Australia","woeid":"23388205"},{"code":"SYR","lat":"43.1141","lon":"-76.1121","name":"Hancock International Airport","city":"Syracuse","state":"New York","country":"United States","woeid":"12520075"},{"code":"SYX","lat":"18.281","lon":"109.498","name":"Sanya","city":"Sanya","state":"Hainan","country":"China","woeid":"23424781"},{"code":"SZG","lat":"47.7937","lon":"13.0043","name":"Salzburg Airport","city":"Salzburg","state":"Salzburg","country":"Austria","woeid":"12510826"},{"code":"SZX","lat":"22.5333","lon":"113.967","name":"Shenzhen Airport","city":"Shenzhen","state":"Guangdong","country":"China","woeid":"12523239"},{"code":"TAO","lat":"36.2311","lon":"120.389","name":"Liuting Airport","city":"Wanggezhuang","state":"Shandong","country":"China","woeid":"12512130"},{"code":"TAS","lat":"41.2552","lon":"69.2846","name":"Tashkent South Airport","city":"Tashkent","state":"Toshkent","country":"Uzbekistan","woeid":"12522725"},{"code":"TBS","lat":"41.6716","lon":"44.9556","name":"Tbilisi-Noyo Alekseyevka Airport","city":"Tbilisi","state":"Gardabanis Raioni","country":"Georgia","woeid":"12513015"},{"code":"TFN","lat":"28.4978","lon":"-16.3419","name":"Norte-Los Rodeos Airport","city":"Tegueste","state":"Canary Islands","country":"Spain","woeid":"12517560"},{"code":"TFS","lat":"28.0474","lon":"-16.5705","name":"Sur-Reina Sofia Airport","city":"Granadilla","state":"Canary Islands","country":"Spain","woeid":"12517573"},{"code":"THR","lat":"35.6908","lon":"51.3144","name":"Mehrabad International Airport","city":"Tehran","state":"Tehran","country":"Iran","woeid":"12513746"},{"code":"TIA","lat":"41.4247","lon":"19.7147","name":"Tirane Rinas Airport","city":"Krna","state":"Durrës","country":"Albania","woeid":"12510418"},{"code":"TIJ","lat":"32.5411","lon":"-116.972","name":"General Abelardo L Rodriguez International Airpo","city":"Tijuana","state":"Baja California","country":"Mexico","woeid":"12514874"},{"code":"TIP","lat":"31","lon":"15","name":"International","city":"Tripoli","state":"Sawfajjin","country":"Libyan Arab Jamahiriya","woeid":"1352663"},{"code":"TJM","lat":"57.1704","lon":"65.3561","name":"Tyumen Northwest Airport","city":"Tyumen'","state":"Tyumenskaya Oblast","country":"Russia","woeid":"12517062"},{"code":"TLC","lat":"19.3356","lon":"-99.565","name":"Jose Maria Morelos Y Pavon Airport","city":"Toluca de Lerdo","state":"Mexico","country":"Mexico","woeid":"12514900"},{"code":"TLL","lat":"59.4121","lon":"24.8297","name":"Ulemiste Airport","city":"Tallinn","state":"Harjumaa","country":"Estonia","woeid":"12512744"},{"code":"TLS","lat":"43.6294","lon":"1.3747","name":"Blagnac Airport","city":"Blagnac","state":"Midi-Pyrenees","country":"France","woeid":"12512856"},{"code":"TLV","lat":"32.0117","lon":"34.8861","name":"Ben Gurion Airport","city":"Petaẖ Tiqwa","state":"HaMerkaz","country":"Israel","woeid":"12513775"},{"code":"TNA","lat":"36.3306","lon":"118.761","name":"Shandong","city":"Jinan","state":"Shandong","country":"China","woeid":"12578014"},{"code":"TNR","lat":"-18.7953","lon":"47.4861","name":"Antananarivo Ivato Airport","city":"Ambohidratrimo","state":"Antananarivo","country":"Madagascar","woeid":"12514691"},{"code":"TOL","lat":"41.5923","lon":"-83.8072","name":"Toledo Express Airport","city":"Swanton","state":"Ohio","country":"United States","woeid":"12522152"},{"code":"TPA","lat":"27.9744","lon":"-82.5356","name":"Tampa International Airport","city":"Tampa","state":"Florida","country":"United States","woeid":"12522077"},{"code":"TPE","lat":"25.081","lon":"121.237","name":"Taiwan Taoyuan International Airport","city":"Taoyuan City","state":"Taiwan Province","country":"Taiwan","woeid":"2306254"},{"code":"TRD","lat":"63.4578","lon":"10.9229","name":"Trondheim Vaernes Airport","city":"Stjordal","state":"Nord-Trondelag","country":"Norway","woeid":"12515128"},{"code":"TRF","lat":"59.182","lon":"10.2509","name":"Torp Airport","city":"Sandefjord","state":"Vestfold Fylke","country":"Norway","woeid":"12515126"},{"code":"TRN","lat":"45.1975","lon":"7.64937","name":"Turin International Airport","city":"Caselle","state":"Piedmont","country":"Italy","woeid":"12513862"},{"code":"TSE","lat":"51.0266","lon":"71.4782","name":"Tselinograd South Airport","city":"Aqmola","state":"Aqmola","country":"Kazakhstan","woeid":"12514494"},{"code":"TSN","lat":"39.1333","lon":"117.35","name":"Zhangguizhuang Airport","city":"Tanggu","state":"Tianjin","country":"China","woeid":"12523246"},{"code":"TSR","lat":"45.8047","lon":"21.3377","name":"Timisoara Northeast Airport","city":"","state":"Timis","country":"Romania","woeid":"12515586"},{"code":"TUL","lat":"36.1877","lon":"-95.8892","name":"Tulsa International Airport","city":"Tulsa","state":"Oklahoma","country":"United States","woeid":"12522219"},{"code":"TUN","lat":"36.8435","lon":"10.2348","name":"Aeroport Tunis","city":"Tunis","state":"Tunis","country":"Tunisia","woeid":"23388364"},{"code":"TUS","lat":"32.1204","lon":"-110.936","name":"Tucson International Airport","city":"Tucson","state":"Arizona","country":"United States","woeid":"12522214"},{"code":"TXL","lat":"52.5548","lon":"13.289","name":"Berlin-Tegel International Airport","city":"Berlin","state":"Berlin","country":"Germany","woeid":"22164086"},{"code":"TYN","lat":"37.774","lon":"112.614","name":"Taiyuan Wusu Airport","city":"Taiyuan","state":"Shanxi","country":"China","woeid":"12512207"},{"code":"TYS","lat":"35.8064","lon":"-83.9889","name":"Mcghee Tyson Airport","city":"Knoxville","state":"Tennessee","country":"United States","woeid":"12520857"},{"code":"UFA","lat":"54.5569","lon":"55.8893","name":"Ufa South Airport","city":"Oufa","state":"Bashkortostan","country":"Russia","woeid":"12517068"},{"code":"URC","lat":"43.9333","lon":"87.4667","name":"Diwopu Airport","city":"Urumqi","state":"Xinjiang","country":"China","woeid":"12523254"},{"code":"VCE","lat":"45.505","lon":"12.3433","name":"Marco Polo International Airport","city":"Venice","state":"Veneto","country":"Italy","woeid":"23095516"},{"code":"VIE","lat":"48.1036","lon":"16.5804","name":"Vienna Schwechat International Airport","city":"Klein-Neusiedl","state":"Lower Austria","country":"Austria","woeid":"22022012"},{"code":"VKO","lat":"55.5978","lon":"37.285","name":"Ynukovo Airport","city":"Podol'sk","state":"Moskovskaya Oblast","country":"Russia","woeid":"12517260"},{"code":"VLC","lat":"39.4929","lon":"-0.47617","name":"Valencia Airport","city":"Manises","state":"Valencia","country":"Spain","woeid":"12517577"},{"code":"VLI","lat":"-17.7039","lon":"168.312","name":"Port Vila Bauerfield Airport","city":"Port-Vila","state":"Shefa","country":"Vanuatu","woeid":"12515052"},{"code":"VNO","lat":"54.64","lon":"25.2803","name":"Vilnius Airport","city":"Vilnius","state":"Vilniaus apskritis","country":"Lithuania","woeid":"12523042"},{"code":"VRN","lat":"45.4033","lon":"10.9053","name":"Verona Airport","city":"Sommacampagna","state":"Veneto","country":"Italy","woeid":"22592277"},{"code":"VVO","lat":"43.3972","lon":"132.156","name":"Artem North Airport","city":"Nakhodka","state":"Primorskiy Kray","country":"Russia","woeid":"12515734"},{"code":"WAW","lat":"52.17","lon":"20.9725","name":"Okecie International Airport","city":"Warsaw","state":"Mazowieckie","country":"Poland","woeid":"12515363"},{"code":"WLG","lat":"-41.3295","lon":"174.806","name":"Wellington International Airport","city":"Wellington","state":"Wellington","country":"New Zealand","woeid":"12515175"},{"code":"WNZ","lat":"28.0025","lon":"120.648","name":"Wenzhou Airport","city":"Wenzhou","state":"Zhejiang","country":"China","woeid":"12523455"},{"code":"WRO","lat":"51.1039","lon":"16.8985","name":"Strachowice Airport","city":"Wroclaw","state":"Dolnosląskie","country":"Poland","woeid":"12515390"},{"code":"WUH","lat":"30.5069","lon":"114.31","name":"Wuchang Nanhu Airport","city":"Wuhan","state":"Hubei","country":"China","woeid":"12512230"},{"code":"XIY","lat":"34.3667","lon":"108.7","name":"Hsien Yang Airport","city":"Xianyang","state":"Shaanxi","country":"China","woeid":"12512075"},{"code":"XMN","lat":"24.5333","lon":"118.117","name":"Xiamen Airport","city":"Xiamen","state":"Fujian","country":"China","woeid":"12523266"},{"code":"YEG","lat":"53.3078","lon":"-113.584","name":"Edmonton International Airport","city":"Leduc","state":"Alberta","country":"Canada","woeid":"12511646"},{"code":"YHZ","lat":"44.8868","lon":"-63.5154","name":"Halifax International Airport","city":"Fall River","state":"Nova Scotia","country":"Canada","woeid":"12511686"},{"code":"YKS","lat":"62.0953","lon":"129.767","name":"Yakutsk Airport","city":"Yakutsk","state":"Sakha","country":"Russia","woeid":"12517227"},{"code":"YOW","lat":"45.3248","lon":"-75.6666","name":"Ottawa International Airport","city":"Ottawa","state":"Ontario","country":"Canada","woeid":"12511779"},{"code":"YQB","lat":"46.791","lon":"-71.3837","name":"Quebec Airport","city":"Ste-Foy","state":"Quebec","country":"Canada","woeid":"12511805"},{"code":"YUL","lat":"45.4562","lon":"-73.7473","name":"Aéroport International Pierre-Elliott-Trudeau d","city":"Dorval","state":"Quebec","country":"Canada","woeid":"12511638"},{"code":"YVR","lat":"49.1931","lon":"-123.172","name":"Vancouver International Airport","city":"Richmond","state":"British Columbia","country":"Canada","woeid":"12511894"},{"code":"YWG","lat":"49.9045","lon":"-97.2253","name":"Winnipeg International Airport","city":"Winnipeg","state":"Manitoba","country":"Canada","woeid":"12511918"},{"code":"YXL","lat":"50.1153","lon":"-91.9056","name":"Sioux Lookout Airport","city":"Sioux Lookout","state":"Ontario","country":"Canada","woeid":"12511831"},{"code":"YYC","lat":"51.1343","lon":"-114.007","name":"Calgary International Airport","city":"Calgary","state":"Alberta","country":"Canada","woeid":"12511594"},{"code":"YYZ","lat":"43.685","lon":"-79.6142","name":"Toronto Lester B Pearson International Airport","city":"Mississauga","state":"Ontario","country":"Canada","woeid":"12511883"},{"code":"ZAG","lat":"45.7402","lon":"16.0704","name":"Zagreb Airport","city":"Nagygoricza","state":"Zagrebačka","country":"Croatia","woeid":"12513376"},{"code":"ZRH","lat":"47.454","lon":"8.56137","name":"Zurich International Airport","city":"Kloten","state":"Canton of Zurich","country":"Switzerland","woeid":"22442771"}]